Dest ID,Name,Category,Lat,Lng
m125,10 Winthrop Street,residence,42.409575,-71.123364
m122,101 Talbot Avenue,residence,42.405947,-71.121809
m144,108 Bromfield Road,pace,42.404787,-71.116729
m074,108 Packard Avenue,conference bureau,42.405774,-71.122854
M163,Charles W. Tu House,,42.4106214,-71.1214796
m103,112 Packard Avenue,community health,42.405875,-71.12279
m132,114 Curtis Street,feinstein international center,42.407178,-71.124957
m087,12 Dearborn Road,residence,42.404896,-71.116145
m104,120 Packard Avenue,government and community relations,42.406032,-71.122747
m093,126 Curtis Street,anthropology,42.40763,-71.124647
m110,128 Professors Row,,42.407316,-71.123995
M302,Loring W. Tu House,,42.4105231,-71.1215948
m098,176 Curtis Street,residence,42.409126,-71.123762
M164,Samson W. Tu House,,42.4104092,-71.1217581
r196b,196 Boston Avenue,,42.416188,-71.127602
m106,20 Professors Row,,42.405403,-71.118679
m148,20 Sawyer Avenue,,42.406304,-71.12342
r027,200 Boston Avenue,hr,42.415783,-71.126647
m165,21-23 Bellevue Street,csrd,42.4102766,-71.1218509
m013,26 Winthrop Street,,42.410364,-71.123084
m149,28 Sawyer Avenue,,42.406399,-71.123679
m123,44 Teele Avenue,gdae,42.405711,-71.125144
M127,David J. Kahle House,,42.411055,-71.122037
m193,51 Winthrop Street,,42.411026,-71.121642
m120,55 Talbot Avenue,women&#039;s center,42.40524,-71.119782
m550boston,550 Boston Avenue,pndp,42.404549,-71.114774
m192,80 George Street,dame school,42.411891,-71.115204
m089,89-91 Curtis Street,,42.406244,-71.125095
m117,9-11 Sunset Road,residence,42.408739,-71.124206
m090,90-94 Curtis Street,residence,42.406503,-71.125391
m041,95 Talbot Avenue,,42.405814,-71.121219
m174,96 Packard Avenue,institute for global leadership,42.405375,-71.123123
m147,97 Talbot Avenue,uep,42.405909,-71.121588
m019,Aidekman Arts Center,commencement,42.404078,-71.11929
m115,45 Sawyer Avenue,residence,42.406964, -71.124314
m142,Kappa Alpha Theta,residence,42.40614,-71.123793
m111,14 Sawyer Avenue,residence,42.406213,-71.123165
m136,Alpha Tau Omega,residence,42.4074,-71.124243
m019a,Alumnae Hall,,42.404649,-71.119162
m056,Anthony House,residence,42.405361,-71.118375
m025,Bacon Hall,animal research,42.404932,-71.114953
m044,Bacow Sailing Pavilion,bacow,42.431497,-71.147284
m019b,Balch Arena Theater,performance,42.40449,-71.119253
m029,Ballou Hall,lactation room,42.407443,-71.120121
m004,Barnum Hall,biology,42.407633,-71.120719
m162,Baronian Field House,,42.403336,-71.119539
m047,Bartol House,residence,42.4068368,-71.1239773
m035,Bendetson Hall,,42.408167,-71.119719
m071,Blakeley Hall,dorm,42.408109,-71.12273
m065,Blakeslee House,fletcher,42.40773,-71.124553
m005,Bolles House,lgbt,42.40511,-71.117661
m007,Braker Hall,economics,42.407401,-71.118133
m008,Bray Laboratory,,42.405744,-71.115631
m099,Bromfield House,educational &amp; scholarly technology services,42.404889,-71.116314
m002,Bromfield-Pearson,graduation-ceremony,42.405482,-71.116415
mbb,Brown & Brew,dining,42.406793,-71.116517
m064,Bush Hall,residence,42.404941,-71.121716
m151,Cabot Center,lactation room,42.407941,-71.121509
m033,Campus Bookstore,textbooks,42.405551,-71.120426
m158,Campus Center,dining,42.405626,-71.119824
m066,Capen House,residence,42.405379,-71.118034
m067,Carmichael Hall,dining,42.409183,-71.122699
m129,Carpenter House,residence,42.409446,-71.123561
m063,Central Heating Building,,42.407857,-71.118217
m085,Central Services,,42.405326,-71.115305
m068,Chandler House,residence,42.404751,-71.123544
m067b,Chase Center,dining,42.408972, -71.122843
m135,Chi Omega,residence,42.406915,-71.12305
m019c,Cohen Auditorium,performance,42.404367,-71.118973
m131,Collaborative Learning and Innovation Complex (CLIC),lactation room,42.403759,-71.113999
m036,Costume Shop,,42.404715,-71.120025
m031,Cousens Athletic Complex,graduation-ceremony,42.408762,-71.116011
m039,Curtis Hall,dining,42.406959,-71.116527
m001,Dana Laboratory,biology lab,42.407804,-71.120892
m069,Davies House,residence,42.406459,-71.122977
m108,Dearborn House,residence,42.406321,-71.12137
m137,Delta Tau Delta: Beta Mu,residence,42.406745,-71.122649
m133,Delta Upsilon,residence,42.407041,-71.123342
m078,Dewick-MacPhie Dining Hall,dining,42.40523,-71.121403
distlerhal,Distler Performance Hall,graduation-ceremony,42.404450,-71.118118
m023,Dowling Hall,visitor parking,42.408529,-71.1183
m038,East Hall,english,42.40767,-71.118745
m010,Eaton Hall,its,42.406833,-71.118683
m012a,Eliot-Pearson Child Development Center,,42.410473,-71.114624
m012b,Eliot-Pearson Children's School,,42.410278,-71.114372
m070,Fairmont House,,42.409956,-71.121212
m118,Fine Arts House,residence,42.405028,-71.118044
m107,Fung House,center for humanities,42.405884,-71.120206
m184,Gantcher Family Sports and Convocation Center,graduation-ceremony,42.409711,-71.115189
m045,Gifford House,president,42.407144,-71.121339
m042,Goddard Chapel,religion,42.40715,-71.119444
m014,Goddard Hall,fletcher,42.407692,-71.121613
m020,Granoff Family Hillel Center,,42.409322,-71.120877
m059,Hall House,residence,42.405465,-71.123063
m026,Halligan Hall,lactation room,42.408393,-71.116305
m155,Hallowell Hall,residence,42.408747,-71.119007
m043,Harleston Hall,residence,42.403593,-71.120392
m054,Haskell Hall,residence,42.40436,-71.121905
m060,Hayes House,,42.408305,-71.124707
m032,Health Service,hooper infirmary,42.407146,-71.123748
m053,Hill Hall,residence,42.409494,-71.119696
m061,Hillside House,,42.405013,-71.117112
m153,Hillside Housing 1,residence,42.409086,-71.119152
m154,Hillside Housing 2,residence,42.408893,-71.119541
m052,Hodgdon Hall,dining,42.405537,-71.122059
m080,Houston Hall,residence,42.408237,-71.121993
m189,Interfaith Center,,42.411374,-71.122181
m040,Jackson Gym,dance,42.404636,-71.119621
m006,Lane Hall,art,42.409145,-71.119922
m146,Latin Way Dormitory,residence,42.403844,-71.121186
m019d,Leir Hall,,42.404577,-71.118769
m128,Lewis Hall,residence,42.404901,-71.122826
m015,Lincoln Filene Hall,,42.407224,-71.117832
m072,McCollester House,residence,42.411015,-71.123962
m073,MetCalf Hall,residence,42.406045,-71.120864
m016,Michael Laboratory,,42.404724,-71.120773
m077,Miller Hall,residence,42.409047,-71.121296
m046,Milne House,latino,42.405629,-71.123272
m017,Miner Hall,philosophy,42.406559,-71.117849
m018,Mugar Hall,dining,42.407854,-71.122177
m011,Joyce Cummings Center,,42.407824,-71.116534
m086,Olin Center,languages,42.408332,-71.121229
m034,Packard Hall,administration,42.407955,-71.119359
m027,Paige Hall,education,42.406832,-71.117664
m009,Pearson Chemical Laboratory,pearson hall,42.404908,-71.120487
m195,Perry and Marty Granoff Music Center,music,42.404578,-71.118388
m021,Psychology Building,,42.406314,-71.116086
m019e,Remis Sculpture Court,,42.404445,-71.11873
m051,Richardson House,women&#039;s residence,42.405509,-71.11916
m049,Sawyer House,,42.40737,-71.124789
m102,Scene Shop,,42.405398,-71.114600
m050,Schmalz House,residence,42.405948, -71.123266
m205,Tsungming Tu Complex,biology,42.405919,-71.116713
m028,Science and Technology Center,biology,42.403589,-71.113161
m109,92 Professors Row,residence,42.406684, -71.122364
m196,Sophia Gordon Hall,residence,42.40512,-71.118606
m081,Start House,,42.405653,-71.120924
m202,Steve Tisch Sports and Fitness Center,athletics,42.409081,-71.115584
m048,Stratton Hall,residence,42.405126,-71.119239
M206,Green House,,42.410463,-71.121131
m030,TAB,tufts administration building,42.401206,-71.125335
m138,Theta Chi,residence,42.40556,-71.123025
z003,123 Packard Avenue,residence,42.406092,-71.122037
m062,Tilton Hall,residence,42.404627,-71.12224
m024,Tisch Library,lactation room,42.406242,-71.118857
m057,Tousey House,,42.410459,-71.123823
m145,TTS Technology Support Center,arena annex,42.404418,-71.120602
m203,Tufts Conference & Event Services,conference-bureau,42.4057115,-71.1226265
msis,Tufts Support Services,student information system,42.404328,-71.120254
m037,West Hall,residence,42.408284,-71.120336
m197,William A. Shoemaker Boathouse at Tufts University,crew,42.410547,-71.073876
m075,Wilson House,residence,42.4079,-71.124569
wren,Wren Hall,dorm,42.409849,-71.12191
m076,Wyeth House,residence,42.406074, -71.123612
m-derby-ct,Derby Entrepreneurship Center,,42.40797367654542,-71.11662439332399